{
  "city": "Jaipur",
  "last_updated": "2026-01-18",
  "pois": [
    {
      "id": "osm_1",
      "name": "Hawa Mahal",
      "category": "attraction",
      "lat": 26.9239,
      "lon": 75.8267,
      "address": "Hawa Mahal Rd, Badi Choupad, J.D.A. Market",
      "description": "Iconic palace with 953 small windows, known as Palace of Winds",
      "hours": "9:00 AM - 5:00 PM",
      "entry_fee": "₹50 (Indians), ₹200 (Foreigners)",
      "tags": ["historic", "monument", "photography", "architecture"]
    },
    {
      "id": "osm_2",
      "name": "Amber Fort",
      "category": "attraction",
      "lat": 26.9855,
      "lon": 75.8513,
      "address": "Devisinghpura, Amer",
      "description": "Magnificent hilltop fort with stunning architecture and elephant rides",
      "hours": "8:00 AM - 5:30 PM",
      "entry_fee": "₹100 (Indians), ₹500 (Foreigners)",
      "tags": ["historic", "fort", "architecture", "photography"]
    },
    {
      "id": "osm_3",
      "name": "City Palace",
      "category": "attraction",
      "lat": 26.9258,
      "lon": 75.8237,
      "address": "Tripolia Bazar, Near Jantar Mantar",
      "description": "Royal residence with museums, courtyards, and stunning architecture",
      "hours": "9:30 AM - 5:00 PM",
      "entry_fee": "₹200 (Indians), ₹700 (Foreigners)",
      "tags": ["historic", "palace", "museum", "royal"]
    },
    {
      "id": "osm_4",
      "name": "Jantar Mantar",
      "category": "attraction",
      "lat": 26.9248,
      "lon": 75.8246,
      "address": "Gangori Bazaar, Near City Palace",
      "description": "UNESCO World Heritage astronomical observation site",
      "hours": "9:00 AM - 4:30 PM",
      "entry_fee": "₹50 (Indians), ₹200 (Foreigners)",
      "tags": ["historic", "science", "unesco", "astronomy"]
    },
    {
      "id": "osm_5",
      "name": "Nahargarh Fort",
      "category": "attraction",
      "lat": 26.9373,
      "lon": 75.8157,
      "address": "Krishna Nagar, Brahampuri",
      "description": "Hilltop fort with panoramic city views, best for sunset",
      "hours": "10:00 AM - 5:30 PM",
      "entry_fee": "₹50 (Indians), ₹200 (Foreigners)",
      "tags": ["historic", "fort", "sunset", "views"]
    },
    {
      "id": "osm_6",
      "name": "Albert Hall Museum",
      "category": "museum",
      "lat": 26.9119,
      "lon": 75.8185,
      "address": "Ram Niwas Garden",
      "description": "State museum with Indo-Saracenic architecture, stunning night illumination",
      "hours": "9:00 AM - 5:00 PM, 7:00 PM - 10:00 PM",
      "entry_fee": "₹40 (Indians), ₹300 (Foreigners)",
      "tags": ["museum", "art", "history", "architecture"]
    },
    {
      "id": "osm_7",
      "name": "Birla Mandir",
      "category": "temple",
      "lat": 26.8924,
      "lon": 75.8127,
      "address": "Jawahar Lal Nehru Marg, Tilak Nagar",
      "description": "Beautiful white marble temple dedicated to Lord Vishnu",
      "hours": "6:00 AM - 12:00 PM, 3:00 PM - 9:00 PM",
      "entry_fee": "Free",
      "tags": ["temple", "religious", "marble", "peaceful"]
    },
    {
      "id": "osm_8",
      "name": "Galtaji Temple",
      "category": "temple",
      "lat": 26.9178,
      "lon": 75.8545,
      "address": "Sri Galtaji, Galta Gate",
      "description": "Ancient temple complex with natural springs, known for monkeys",
      "hours": "5:00 AM - 9:00 PM",
      "entry_fee": "Free",
      "tags": ["temple", "religious", "nature", "monkeys"]
    },
    {
      "id": "osm_9",
      "name": "Johari Bazaar",
      "category": "market",
      "lat": 26.9215,
      "lon": 75.8228,
      "address": "Johari Bazaar, Pink City",
      "description": "Famous market for jewelry, gems, and traditional textiles",
      "hours": "10:00 AM - 8:00 PM (closed Sundays)",
      "entry_fee": "Free",
      "tags": ["shopping", "jewelry", "textiles", "traditional"]
    },
    {
      "id": "osm_10",
      "name": "Bapu Bazaar",
      "category": "market",
      "lat": 26.9195,
      "lon": 75.8189,
      "address": "Bapu Bazaar, Pink City",
      "description": "Popular market for textiles, mojaris, and souvenirs",
      "hours": "10:00 AM - 8:00 PM",
      "entry_fee": "Free",
      "tags": ["shopping", "textiles", "shoes", "souvenirs"]
    },
    {
      "id": "osm_11",
      "name": "LMB (Laxmi Mishthan Bhandar)",
      "category": "restaurant",
      "lat": 26.9221,
      "lon": 75.8231,
      "address": "Johari Bazaar",
      "description": "Iconic vegetarian restaurant famous for sweets and thalis",
      "hours": "8:00 AM - 11:00 PM",
      "price_range": "₹₹",
      "tags": ["vegetarian", "sweets", "traditional", "famous"]
    },
    {
      "id": "osm_12",
      "name": "Rawat Mishtan Bhandar",
      "category": "restaurant",
      "lat": 26.9147,
      "lon": 75.7847,
      "address": "Station Road",
      "description": "Legendary spot for pyaaz kachori, best breakfast in Jaipur",
      "hours": "6:00 AM - 10:30 PM",
      "price_range": "₹",
      "tags": ["vegetarian", "breakfast", "kachori", "famous"]
    },
    {
      "id": "osm_13",
      "name": "Chokhi Dhani",
      "category": "restaurant",
      "lat": 26.7958,
      "lon": 75.8334,
      "address": "12 Miles, Tonk Road",
      "description": "Ethnic village resort with traditional Rajasthani dining and entertainment",
      "hours": "5:00 PM - 11:00 PM",
      "price_range": "₹₹₹",
      "tags": ["rajasthani", "thali", "cultural", "entertainment"]
    },
    {
      "id": "osm_14",
      "name": "Jal Mahal",
      "category": "attraction",
      "lat": 26.9534,
      "lon": 75.8462,
      "address": "Amer Road",
      "description": "Beautiful palace floating in Man Sagar Lake, view from shore only",
      "hours": "Open 24 hours (exterior view)",
      "entry_fee": "Free (exterior)",
      "tags": ["palace", "lake", "photography", "scenic"]
    },
    {
      "id": "osm_15",
      "name": "Sisodia Rani Garden",
      "category": "park",
      "lat": 26.9097,
      "lon": 75.8587,
      "address": "Agra Road",
      "description": "Beautiful terraced garden with fountains and painted pavilions",
      "hours": "8:00 AM - 5:00 PM",
      "entry_fee": "₹50",
      "tags": ["garden", "peaceful", "romantic", "architecture"]
    }
  ]
}
